[
  {
    "name": "The San Jose Flea Market",
    "i": 1,
    "verticle": "Mortgage",
    "tier_category": "region",
    "state": "CA",
    "parent": [],
    "companyName": "The San Jose Flea Market",
    "address_line_1": "1590 Berryessa Rd",
    "address_line_2": "",
    "city": "San Jose",
    "phone": "+14084531110",
    "website": "http://www.sjfm.com",
    "zipCode": "95133",
    "lat": "37.368533247308115",
    "lng": "-121.87729688604259"
  },
  {
    "name": "7 Leaves Cafe",
    "i": 2,
    "verticle": "Mortgage",
    "tier_category": "region",
    "state": "CA",
    "parent": [],
    "companyName": "7 Leaves Cafe",
    "address_line_1": "375 Saratoga Ave suite n",
    "address_line_2": "Saratoga Plaza",
    "city": "San Jose",
    "phone": "+14089316555",
    "website": "https://7leavescafe.com",
    "zipCode": "95129",
    "lat": "37.321758862399456",
    "lng": "-121.97161779216992"
  },
  {
    "name": "Pep Boys",
    "i": 3,
    "verticle": "Mortgage",
    "tier_category": "region",
    "state": "CA",
    "parent": [],
    "companyName": "Pep Boys",
    "address_line_1": "375 Saratoga Ave suite n",
    "address_line_2": "",
    "city": "San Jose",
    "phone": "+14082468090",
    "website": "https://stores.pepboys.com",
    "zipCode": "95117",
    "lat": "37.3228205432643",
    "lng": "-121.96803940370629"
  },
  {
    "name": "Hyatt Place San Jose/Downtown",
    "i": 4,
    "verticle": "Mortgage",
    "tier_category": "region",
    "state": "CA",
    "parent": [],
    "companyName": "Hyatt Place San Jose/Downtown",
    "address_line_1": "282 Almaden Blvd",
    "address_line_2": "",
    "city": "San Jose",
    "phone": "+14089980400",
    "website": "https://www.hyatt.com",
    "zipCode": "95113",
    "lat": "37.33010660515452",
    "lng": "-121.89151871164233"
  },
  {
    "name": "Walmart Neighborhood Market",
    "i": 5,
    "verticle": "Mortgage",
    "tier_category": "region",
    "state": "CA",
    "parent": [],
    "companyName": "Walmart Neighborhood Market",
    "address_line_1": "1450 Monterey Rd",
    "address_line_2": "",
    "city": "San Jose",
    "phone": "+14084544508",
    "website": "https://www.walmart.com",
    "zipCode": "95110",
    "lat": "37.31624520253655",
    "lng": "-121.8711140712973"
  },
  {
    "name": "Evergreen Threading & Skincare",
    "i": 6,
    "verticle": "Mortgage",
    "tier_category": "region",
    "state": "CA",
    "parent": [],
    "companyName": "Evergreen Threading & Skincare",
    "address_line_1": "2560 Aborn Rd",
    "address_line_2": "",
    "city": "San Jose",
    "phone": "+14084225426",
    "website": "https://evt.setmore.com",
    "zipCode": "95121",
    "lat": "37.312597599494",
    "lng": "-121.798539851899"
  },
  {
    "name": "Pulvy Boutique & Eyebrow Threading",
    "i": 7,
    "verticle": "Mortgage",
    "tier_category": "region",
    "state": "CA",
    "parent": [],
    "companyName": "Pulvy Boutique & Eyebrow Threading",
    "address_line_1": "3317 San Felipe Rd",
    "address_line_2": "",
    "city": "San Jose",
    "phone": "+14085318091",
    "website": "https://pulvy.setmore.com",
    "zipCode": "95135",
    "lat": "37.312789590942344",
    "lng": "-121.79163866729343"
  },
  {
    "name": "Harry L Murphy Inc",
    "i": 8,
    "verticle": "Mortgage",
    "tier_category": "region",
    "state": "CA",
    "parent": [],
    "companyName": "Harry L Murphy Inc",
    "address_line_1": "42 Bonaventura Dr",
    "address_line_2": "",
    "city": "San Jose",
    "phone": "+14089551100",
    "website": "http://www.harrylmurphy.com",
    "zipCode": "95134",
    "lat": "37.38839305707258",
    "lng": "-121.92813773297897"
  },
  {
    "name": "Villa Torino",
    "i": 9,
    "verticle": "Mortgage",
    "tier_category": "region",
    "state": "CA",
    "parent": [],
    "companyName": "Villa Torino",
    "address_line_1": "29 W Julian St",
    "address_line_2": "",
    "city": "San Jose",
    "phone": "+14087694831",
    "website": "http://www.villatorinoapts.com",
    "zipCode": "95110",
    "lat": "37.34050328892686",
    "lng": "-121.89449586238037"
  },
  {
    "name": "Santa Clara Valley Medical Center",
    "i": 10,
    "verticle": "Mortgage",
    "tier_category": "region",
    "state": "CA",
    "parent": [],
    "companyName": "Santa Clara Valley Medical Center",
    "address_line_1": "751 S Bascom Ave",
    "address_line_2": "",
    "city": "San Jose",
    "phone": "+14088855000",
    "website": "https://www.scvmc.org",
    "zipCode": "95128",
    "lat": "37.31349485485249",
    "lng": "-121.93350343483"
  },
  {
    "name": "National Tree Service Inc",
    "i": 11,
    "verticle": "Mortgage",
    "tier_category": "region",
    "state": "CA",
    "parent": [],
    "companyName": "National Tree Service Inc",
    "address_line_1": "125 Biddleford Ct",
    "address_line_2": "",
    "city": "San Jose",
    "phone": "+14084654351",
    "website": "http://www.treeservicebayarea.com",
    "zipCode": "95139",
    "lat": "37.22625596722653",
    "lng": "-121.76597112568777"
  },
  {
    "name": "CVS",
    "i": 12,
    "verticle": "Mortgage",
    "tier_category": "region",
    "state": "CA",
    "parent": [],
    "companyName": "CVS",
    "address_line_1": "6910 Almaden Expy",
    "address_line_2": "Almaden Via Valiente Plaza",
    "city": "San Jose",
    "phone": "+14089277310",
    "website": "https://www.cvs.com",
    "zipCode": "95120",
    "lat": "37.2110554338452",
    "lng": "-121.84678580792475"
  },
  {
    "name": "Enlighten Chinese School",
    "i": 13,
    "verticle": "Mortgage",
    "tier_category": "region",
    "state": "CA",
    "parent": [],
    "companyName": "Enlighten Chinese School",
    "address_line_1": "1921 Clarinda Way",
    "address_line_2": "",
    "city": "San Jose",
    "phone": "+14083584968",
    "website": "http://www.enlightenchinese.org",
    "zipCode": "95124",
    "lat": "37.24550481011966",
    "lng": "-121.92525052265457"
  },
  {
    "name": "Bayphoto Net Photography",
    "i": 14,
    "verticle": "Mortgage",
    "tier_category": "region",
    "state": "CA",
    "parent": [],
    "companyName": "Bayphoto Net Photography",
    "address_line_1": "1528 Ardenwood Dr",
    "address_line_2": "",
    "city": "San Jose",
    "phone": "+14083731510",
    "website": "http://www.bayphoto.net",
    "zipCode": "95129",
    "lat": "37.296475988331885",
    "lng": "-122.02229297218024"
  },
  {
    "name": "MTRB Payroll",
    "i": 15,
    "verticle": "Mortgage",
    "tier_category": "region",
    "state": "CA",
    "parent": [],
    "companyName": "MTRB Payroll",
    "address_line_1": "1501 Sun Ln",
    "address_line_2": "",
    "city": "San Jose",
    "phone": "+14158778766",
    "website": "http://mtrb-payroll.business.site",
    "zipCode": "95132",
    "lat": "37.4037074694206",
    "lng": "-121.85456577434222"
  },
  {
    "name": "The Verdant Apartments",
    "i": 16,
    "verticle": "Mortgage",
    "tier_category": "region",
    "state": "CA",
    "parent": [],
    "companyName": "The Verdant Apartments",
    "address_line_1": "3700 Casa Verde St",
    "address_line_2": "",
    "city": "San Jose",
    "phone": "+14088313493",
    "website": "https://verdant-apts.securecafe.com",
    "zipCode": "95134",
    "lat": "37.41277141065783",
    "lng": "-121.93911190829651"
  },
  {
    "name": "Postinfy",
    "i": 17,
    "verticle": "Mortgage",
    "tier_category": "region",
    "state": "CA",
    "parent": [],
    "companyName": "Postinfy",
    "address_line_1": "3806 Evangelho Cir",
    "address_line_2": "",
    "city": "San Jose",
    "phone": "+16503092581",
    "website": "https://postinfy.com",
    "zipCode": "95148",
    "lat": "37.31942394418092",
    "lng": "-121.76146357539524"
  },
  {
    "name": "Stonebrook Health and Rehabilitation",
    "i": 18,
    "verticle": "Mortgage",
    "tier_category": "region",
    "state": "CA",
    "parent": [],
    "companyName": "Stonebrook Health and Rehabilitation",
    "address_line_1": "350 De Soto Dr",
    "address_line_2": "",
    "city": "San Jose",
    "phone": "+14083569151",
    "website": "http://www.stonebrookrehab.com",
    "zipCode": "95032",
    "lat": "37.24487084612143",
    "lng": "-121.94701586514702"
  },
  {
    "name": "Patxi's Pizza",
    "i": 19,
    "verticle": "Mortgage",
    "tier_category": "region",
    "state": "CA",
    "parent": [],
    "companyName": "Patxi's Pizza",
    "address_line_1": "3350 Zanker Rd #30",
    "address_line_2": "",
    "city": "San Jose",
    "phone": "+14085261999",
    "website": "https://www.patxispizza.com",
    "zipCode": "95134",
    "lat": "37.403073528356316",
    "lng": "-121.9332939970438"
  },
  {
    "name": "OM Furniture Repair",
    "i": 20,
    "verticle": "Mortgage",
    "tier_category": "region",
    "state": "CA",
    "parent": [],
    "companyName": "OM Furniture Repair",
    "address_line_1": "2433 Camrose Ave",
    "address_line_2": "",
    "city": "San Jose",
    "phone": "+14084721442",
    "website": "",
    "zipCode": "95130",
    "lat": "37.27811936813552",
    "lng": "-121.98795877594546"
  },
  {
    "name": "Eastridge",
    "i": 21,
    "verticle": "Mortgage",
    "tier_category": "region",
    "state": "CA",
    "parent": [],
    "companyName": "Eastridge",
    "address_line_1": "2200 Eastridge Loop #2062",
    "address_line_2": "",
    "city": "San Jose",
    "phone": "+14082383600",
    "website": "http://www.eastridgecenter.com",
    "zipCode": "95122",
    "lat": "37.3254726933283",
    "lng": "-121.81376743343799"
  },
  {
    "name": "Villages Golf & Country Club",
    "i": 22,
    "verticle": "Mortgage",
    "tier_category": "region",
    "state": "CA",
    "parent": [],
    "companyName": "Villages Golf & Country Club",
    "address_line_1": "5000 Cribari Ln",
    "address_line_2": "",
    "city": "San Jose",
    "phone": "+14087541336",
    "website": "http://www.thevillagesgcc.com",
    "zipCode": "95135",
    "lat": "37.29014583651902",
    "lng": "-121.75231580027337"
  },
  {
    "name": "At First",
    "i": 23,
    "verticle": "Mortgage",
    "tier_category": "region",
    "state": "CA",
    "parent": [],
    "companyName": "At First",
    "address_line_1": "1513, 4130 N 1st St",
    "address_line_2": "",
    "city": "San Jose",
    "phone": "",
    "website": "http://www.shopatfirst.com",
    "zipCode": "95134",
    "lat": "37.41630735876811",
    "lng": "-121.95377373699344"
  },
  {
    "name": "sweet bay bakery",
    "i": 24,
    "verticle": "Mortgage",
    "tier_category": "region",
    "state": "CA",
    "parent": [],
    "companyName": "sweet bay bakery",
    "address_line_1": "Half Pence Way",
    "address_line_2": "",
    "city": "San Jose",
    "phone": "+14089157090",
    "website": "http://www.sweetbaybakery.com",
    "zipCode": "95132",
    "lat": "37.41288757660024",
    "lng": "-121.8559390284013"
  },
  {
    "name": "Mobility Doctors (help my Lift)",
    "i": 25,
    "verticle": "Mortgage",
    "tier_category": "region",
    "state": "CA",
    "parent": [],
    "companyName": "Mobility Doctors (help my Lift)",
    "address_line_1": "457 Porter Ln",
    "address_line_2": "",
    "city": "San Jose",
    "phone": "+14088363464",
    "website": "http://mobilityet.com",
    "zipCode": "95127",
    "lat": "37.37221605490532",
    "lng": "-121.8061252050544"
  },
  {
    "name": "Tashiro Home Daycare",
    "i": 26,
    "verticle": "Mortgage",
    "tier_category": "region",
    "state": "CA",
    "parent": [],
    "companyName": "Tashiro Home Daycare",
    "address_line_1": "3569 Minto Ct",
    "address_line_2": "",
    "city": "San Jose",
    "phone": "+14089818654",
    "website": "https://tashiro-home-daycare.business.site",
    "zipCode": "95132",
    "lat": "37.41830956156137",
    "lng": "-121.86035124392502"
  },
  {
    "name": "Khalsa Properties",
    "i": 27,
    "verticle": "Mortgage",
    "tier_category": "region",
    "state": "CA",
    "parent": [],
    "companyName": "Khalsa Properties",
    "address_line_1": "1512 Hemmingway Rd",
    "address_line_2": "",
    "city": "San Jose",
    "phone": "+14084607794",
    "website": "",
    "zipCode": "95132",
    "lat": "37.40794520209184",
    "lng": "-121.8474760437599"
  },
  {
    "name": "Taco Bell",
    "i": 28,
    "verticle": "Mortgage",
    "tier_category": "region",
    "state": "CA",
    "parent": [],
    "companyName": "Taco Bell",
    "address_line_1": "5431 Camden Ave",
    "address_line_2": "",
    "city": "San Jose",
    "phone": "+14082661533",
    "website": "https://locations.tacobell.com",
    "zipCode": "95124",
    "lat": "37.23985483007536",
    "lng": "-121.9041225081119"
  },
  {
    "name": "Spina Farms",
    "i": 29,
    "verticle": "Mortgage",
    "tier_category": "region",
    "state": "CA",
    "parent": [],
    "companyName": "Spina Farms",
    "address_line_1": "8820 Santa Teresa Blvd",
    "address_line_2": "",
    "city": "San Jose",
    "phone": "",
    "website": "http://www.spinafarmspumpkinpatch.com",
    "zipCode": "95141",
    "lat": "37.20065363032576",
    "lng": "-121.73563488285427"
  },
  {
    "name": "Desi Food & Home Catering",
    "i": 30,
    "verticle": "Mortgage",
    "tier_category": "region",
    "state": "CA",
    "parent": [],
    "companyName": "Desi Food & Home Catering",
    "address_line_1": "3436 Cunard Ct",
    "address_line_2": "",
    "city": "San Jose",
    "phone": "+15103719345",
    "website": "http://www.desifoodandhomecatering.com",
    "zipCode": "95132",
    "lat": "37.413861571328866",
    "lng": "-121.85377578558301"
  }
]
